$GPGGA,181855.765,4025.612,N,08654.825,W,1,12,1.0,0.0,M,0.0,M,,*7E
$GPGSA,A,3,01,02,03,04,05,06,07,08,09,10,11,12,1.0,1.0,1.0*30
$GPRMC,181855.765,A,4025.612,N,08654.825,W,031.8,000.0,230920,000.0,W*6A
$GPGGA,181856.765,4025.620,N,08654.825,W,1,12,1.0,0.0,M,0.0,M,,*7C
$GPGSA,A,3,01,02,03,04,05,06,07,08,09,10,11,12,1.0,1.0,1.0*30
$GPRMC,181856.765,A,4025.620,N,08654.825,W,038.0,358.3,230920,000.0,W*64
$GPGGA,181857.765,4025.631,N,08654.826,W,1,12,1.0,0.0,M,0.0,M,,*7E
$GPGSA,A,3,01,02,03,04,05,06,07,08,09,10,11,12,1.0,1.0,1.0*30
$GPRMC,181857.765,A,4025.631,N,08654.826,W,044.1,000.0,230920,000.0,W*61
$GPGGA,181858.765,4025.643,N,08654.826,W,1,12,1.0,0.0,M,0.0,M,,*74
$GPGSA,A,3,01,02,03,04,05,06,07,08,09,10,11,12,1.0,1.0,1.0*30
$GPRMC,181858.765,A,4025.643,N,08654.826,W,040.6,000.0,230920,000.0,W*68
$GPGGA,181859.765,4025.654,N,08654.826,W,1,12,1.0,0.0,M,0.0,M,,*73
$GPGSA,A,3,01,02,03,04,05,06,07,08,09,10,11,12,1.0,1.0,1.0*30
$GPRMC,181859.765,A,4025.654,N,08654.826,W,037.1,000.0,230920,000.0,W*68
$GPGGA,181900.765,4025.665,N,08654.826,W,1,12,1.0,0.0,M,0.0,M,,*7C
$GPGSA,A,3,01,02,03,04,05,06,07,08,09,10,11,12,1.0,1.0,1.0*30
$GPRMC,181900.765,A,4025.665,N,08654.826,W,023.8,002.8,230920,000.0,W*61
$GPGGA,181901.765,4025.671,N,08654.825,W,1,12,1.0,0.0,M,0.0,M,,*7B
$GPGSA,A,3,01,02,03,04,05,06,07,08,09,10,11,12,1.0,1.0,1.0*30
$GPRMC,181901.765,A,4025.671,N,08654.825,W,030.0,090.0,230920,000.0,W*6F
$GPGGA,181902.765,4025.671,N,08654.814,W,1,12,1.0,0.0,M,0.0,M,,*7A
$GPGSA,A,3,01,02,03,04,05,06,07,08,09,10,11,12,1.0,1.0,1.0*30
$GPRMC,181902.765,A,4025.671,N,08654.814,W,038.2,095.1,230920,000.0,W*60
$GPGGA,181903.765,4025.670,N,08654.800,W,1,12,1.0,0.0,M,0.0,M,,*7F
$GPGSA,A,3,01,02,03,04,05,06,07,08,09,10,11,12,1.0,1.0,1.0*30
$GPRMC,181903.765,A,4025.670,N,08654.800,W,036.2,092.1,230920,000.0,W*6C
$GPGGA,181904.765,4025.670,N,08654.787,W,1,12,1.0,0.0,M,0.0,M,,*78
$GPGSA,A,3,01,02,03,04,05,06,07,08,09,10,11,12,1.0,1.0,1.0*30
$GPRMC,181904.765,A,4025.670,N,08654.787,W,031.0,093.7,230920,000.0,W*69
$GPGGA,181905.765,4025.669,N,08654.776,W,1,12,1.0,0.0,M,0.0,M,,*7F
$GPGSA,A,3,01,02,03,04,05,06,07,08,09,10,11,12,1.0,1.0,1.0*30
$GPRMC,181905.765,A,4025.669,N,08654.776,W,020.5,084.3,230920,000.0,W*69
$GPGGA,181906.765,4025.670,N,08654.769,W,1,12,1.0,0.0,M,0.0,M,,*7A
$GPGSA,A,3,01,02,03,04,05,06,07,08,09,10,11,12,1.0,1.0,1.0*30
$GPRMC,181906.765,A,4025.670,N,08654.769,W,024.7,182.7,230920,000.0,W*69
$GPGGA,181907.765,4025.663,N,08654.769,W,1,12,1.0,0.0,M,0.0,M,,*79
$GPGSA,A,3,01,02,03,04,05,06,07,08,09,10,11,12,1.0,1.0,1.0*30
$GPRMC,181907.765,A,4025.663,N,08654.769,W,035.3,180.0,230920,000.0,W*6B
$GPGGA,181908.765,4025.653,N,08654.769,W,1,12,1.0,0.0,M,0.0,M,,*75
$GPGSA,A,3,01,02,03,04,05,06,07,08,09,10,11,12,1.0,1.0,1.0*30
$GPRMC,181908.765,A,4025.653,N,08654.769,W,050.3,178.7,230920,000.0,W*64
$GPGGA,181909.765,4025.639,N,08654.769,W,1,12,1.0,0.0,M,0.0,M,,*78
$GPGSA,A,3,01,02,03,04,05,06,07,08,09,10,11,12,1.0,1.0,1.0*30
$GPRMC,181909.765,A,4025.639,N,08654.769,W,047.7,181.4,230920,000.0,W*6E
$GPGGA,181910.765,4025.626,N,08654.769,W,1,12,1.0,0.0,M,0.0,M,,*7E
$GPGSA,A,3,01,02,03,04,05,06,07,08,09,10,11,12,1.0,1.0,1.0*30
$GPRMC,181910.765,A,4025.626,N,08654.769,W,040.6,178.4,230920,000.0,W*68
$GPGGA,181911.765,4025.614,N,08654.769,W,1,12,1.0,0.0,M,0.0,M,,*7E
$GPGSA,A,3,01,02,03,04,05,06,07,08,09,10,11,12,1.0,1.0,1.0*30
$GPRMC,181911.765,A,4025.614,N,08654.769,W,016.0,171.7,230920,000.0,W*67
$GPGGA,181912.765,4025.610,N,08654.768,W,1,12,1.0,0.0,M,0.0,M,,*78
$GPGSA,A,3,01,02,03,04,05,06,07,08,09,10,11,12,1.0,1.0,1.0*30
$GPRMC,181912.765,A,4025.610,N,08654.768,W,029.1,268.7,230920,000.0,W*67
$GPGGA,181913.765,4025.610,N,08654.779,W,1,12,1.0,0.0,M,0.0,M,,*79
$GPGSA,A,3,01,02,03,04,05,06,07,08,09,10,11,12,1.0,1.0,1.0*30
$GPRMC,181913.765,A,4025.610,N,08654.779,W,038.0,271.0,230920,000.0,W*68
$GPGGA,181914.765,4025.610,N,08654.792,W,1,12,1.0,0.0,M,0.0,M,,*7B
$GPGSA,A,3,01,02,03,04,05,06,07,08,09,10,11,12,1.0,1.0,1.0*30
$GPRMC,181914.765,A,4025.610,N,08654.792,W,037.1,267.9,230920,000.0,W*6A
$GPGGA,181915.765,4025.610,N,08654.806,W,1,12,1.0,0.0,M,0.0,M,,*78
$GPGSA,A,3,01,02,03,04,05,06,07,08,09,10,11,12,1.0,1.0,1.0*30
$GPRMC,181915.765,A,4025.610,N,08654.806,W,034.4,270.0,230920,000.0,W*60
$GPGGA,181916.765,4025.610,N,08654.818,W,1,12,1.0,0.0,M,0.0,M,,*74
$GPGSA,A,3,01,02,03,04,05,06,07,08,09,10,11,12,1.0,1.0,1.0*30
$GPRMC,181916.765,A,4025.610,N,08654.818,W,017.6,283.6,230920,000.0,W*65
$GPGGA,181917.765,4025.611,N,08654.825,W,1,12,1.0,0.0,M,0.0,M,,*7A
$GPGSA,A,3,01,02,03,04,05,06,07,08,09,10,11,12,1.0,1.0,1.0*30
$GPRMC,181917.765,A,4025.611,N,08654.825,W,017.6,283.6,230920,000.0,W*6B
